[
  {
    "index": 1,
    "name": "Shoot if You Must This Old Gray Head, but Spare Your Countries Flag",
    "street": "100 W. Patrick St",
    "city": "Frederick",
    "state": "MD",
    "zip": 21701,
    "latitude": 39.4136549566003,
    "longitude": -77.4141633510589,
    "area": "Downtown",
    "notes": "",
    "image": "http://lh6.ggpht.com/z8f9I40KO6pRV4An8NfZWG-gTPYg619fZcPbm3QOKf3dFjdIWvgm39r2rK7loQJyjP9ghHI12XZg72OxymRx"
  },
  {
    "index": 2,
    "name": "Windswept",
    "street": "100 W. Patrick St",
    "city": "Frederick",
    "state": "MD",
    "zip": 21701,
    "latitude": 39.4126644249832,
    "longitude": -77.4128115177154,
    "area": "Downtown",
    "notes": "",
    "image": "http://lh3.googleusercontent.com/Tyso9LSC-wieDtPhE4cM9roPJhP9RRh-dqqtvMmxZizrrK0lbRZqdDaBO0PNCsi1G8OF2UlI_pq8Ph4hdcmQ"
  },
  {
    "index": 3,
    "name": "Frederick Court House Clock Tower",
    "street": "100 W. Patrick St",
    "city": "Frederick",
    "state": "MD",
    "zip": 21701,
    "latitude": 39.4138704678914,
    "longitude": -77.4124252796173,
    "area": "Downtown",
    "notes": "",
    "image": "http://lh3.ggpht.com/hHGQuyxE1zrZlU4JeJ37aGTsttJPo9j-exTBArg1eT8tMuLlJscb-R8sT-JwtrjU9o8PjfLTYOP9staIM5x0"
  },
  {
    "index": 4,
    "name": "City Hall",
    "street": "101 N Court St",
    "city": "Frederick",
    "state": "MD",
    "zip": 21701,
    "latitude": 39.4158887816872,
    "longitude": -77.4124950170517,
    "area": "Downtown",
    "notes": "",
    "image": "http://lh3.googleusercontent.com/KAvvyPKT1nta1vMtiNSHkzJnsphqKDju-tcuZhVcwgZhvb2cvsEGf1pXYrS_Wp6zePIvVn8KyoGnmIlduf_c"
  },
  {
    "index": 5,
    "name": "Bull Statue",
    "street": "151 W Patrick St",
    "city": "Frederick",
    "state": "MD",
    "zip": 21701,
    "latitude": 39.4142144556875,
    "longitude": -77.4141097068786,
    "area": "Downtown",
    "notes": "Address is law office, but it will get you there",
    "image": "http://lh3.googleusercontent.com/zMJ9FFNO_wxtCueSHL9GPKPd8v_3Cp6-CBRMRw4LQPA7NqNxEw2kktt0KhPokGQQCtoW0IFIpui-ptaVfQ0D"
  },
  {
    "index": 6,
    "name": "The Little Pottery Shop",
    "street": "117 N East St",
    "city": "Frederick",
    "state": "MD",
    "zip": 21701,
    "latitude": 39.4156276889426,
    "longitude": -77.4052155017852,
    "area": "Downtown",
    "notes": "",
    "image": "http://lh6.ggpht.com/Ut_dl_e0XQ1x1vLA9CoOqyNltKJGdcP9gmZT71OxUagFBX3-XjqBCfu7mdy26itH3MPXzG4GLUL8_uwGx1I"
  },
  {
    "index": 7,
    "name": "Glory Donuts",
    "street": "244 E Church St",
    "city": "Frederick",
    "state": "MD",
    "zip": 21701,
    "latitude": 39.4148444048415,
    "longitude": -77.4054944515228,
    "area": "Downtown",
    "notes": "",
    "image": "http://lh3.googleusercontent.com/5sV_lFYNSEYW4LHwKhvgbt6x374m3ezcugVJ5cxyxpk_RjkZ_QeSMYQc31-obxzXB6EAX2PpSOb7ge6Carw"
  },
  {
    "index": 8,
    "name": "Frederick Rail Station",
    "street": "100 S East St",
    "city": "Frederick",
    "state": "MD",
    "zip": 21701,
    "latitude": 39.4116738792935,
    "longitude": -77.4056500196457,
    "area": "Downtown",
    "notes": "",
    "image": "http://lh4.ggpht.com/oXFkksFe0VmvyvjYcmjkAyi_z-FLN2ARRHEvp7PL2Kq1PIWZ0DYMrl7XLfi8-LevwL70msiFVHGVQXoY-kvj"
  },
  {
    "index": 9,
    "name": "Bridge Mural",
    "street": "42-70 S Carroll St",
    "city": "Frederick",
    "state": "MD",
    "zip": 21701,
    "latitude": 39.4124944997351,
    "longitude": -77.407699227333,
    "area": "Downtown",
    "notes": "Carroll Creek",
    "image": "http://lh5.ggpht.com/5XEoer2i3o2YhrDBahgO386gfwvaSu1L3cQOA2ZQj3_UmHoZ1kp5nT4sy7jHQDvDRbS8kY5Ss4xguGX5I0dxRWECWrKZE4IZ08fsuFlkhWeHMxG_FQ"
  },
  {
    "index": 10,
    "name": "Carroll Creek Bird Sculpture",
    "street": "42-70 S Carroll St",
    "city": "Frederick",
    "state": "MD",
    "zip": 21701,
    "latitude": 39.4124862106881,
    "longitude": -77.4069643020629,
    "area": "Downtown",
    "notes": "Carroll Creek",
    "image": "http://lh5.ggpht.com/Ft9ttIRYRANaGhaBDA7Boc9DzkoTFCuTMi_dBVK5_s7wR1VxIgHvQ81Jqk_MT3I_o__2_IMpg7nnN-XpwCK-"
  },
  {
    "index": 11,
    "name": "B & O Railroad Station",
    "street": "89 S Market St",
    "city": "Frederick",
    "state": "MD",
    "zip": 21701,
    "latitude": 39.4120178779271,
    "longitude": -77.4112772941589,
    "area": "Downtown",
    "notes": "Address is to H & R Food, but it gets you there",
    "image": "http://lh4.ggpht.com/l-JVwvGEwTPv3y6_M8zNrbhN5oKD4x9dPC7dWW1ZLGlzzEZwiTalVF-Yt1CykoOv_HNhvyAtQuBQP8MQJpU"
  },
  {
    "index": 12,
    "name": "Roger Brooke Taney",
    "street": "222-270 E 4th St",
    "city": "Frederick",
    "state": "MD",
    "zip": 21701,
    "latitude": 39.4187027192053,
    "longitude": -77.4054729938507,
    "area": "Downtown",
    "notes": "",
    "image": "http://lh4.ggpht.com/Kw21gAsulzdF6C04chzvOdqamjDqjMSR339EuHsOHE9lk-Wk6LcpsiGapVCx0ehC5CqFgNtq4SYmJ2Ty3zk-oQ"
  },
  {
    "index": 13,
    "name": "St. John the Evangelist",
    "street": "118 E 2nd St",
    "city": "Frederick",
    "state": "MD",
    "zip": 21701,
    "latitude": 39.4162037494112,
    "longitude": -77.4075973033905,
    "area": "Downtown",
    "notes": "",
    "image": "http://lh6.ggpht.com/43BFx22sWy7HUN1qDXxUdy3NtUPdwIYA8-ePuKTpx-MLvIVmySrIiDfzGOx-mCmReecoquWyuVIHOCz8hX1k"
  },
  {
    "index": 14,
    "name": "Hood College Clock",
    "street": "401 Rosemont Ave",
    "city": "Frederick",
    "state": "MD",
    "zip": 21701,
    "latitude": 39.4216325746718,
    "longitude": -77.4198013544082,
    "area": "Hood College",
    "notes": "",
    "image": "http://lh6.ggpht.com/Bg1NucseMyOgw4XdaWRRbxd6YWyndlDnk4GD7RWmBJozCpTxvQo_YDbo6Bd0_N5NfEpPI25uYz7mFfk2qmgV"
  },
  {
    "index": 15,
    "name": "The Pergola",
    "street": "401 Rosemont Ave",
    "city": "Frederick",
    "state": "MD",
    "zip": 21701,
    "latitude": 39.4226312667072,
    "longitude": -77.4186909198761,
    "area": "Hood College",
    "notes": "",
    "image": "http://lh5.ggpht.com/V7RbpsaZ9Dt9kvkxvE5fsidwL8-mWgh0v8ZPfqbcFWpWrwEHjj1Z0OxngXmEYCP0Fka-bhYlx4USCjiHhypX"
  },
  {
    "index": 16,
    "name": "Brodbeck Music Hall",
    "street": "401 Rosemont Ave",
    "city": "Frederick",
    "state": "MD",
    "zip": 21701,
    "latitude": 39.4212803354781,
    "longitude": -77.4182939529419,
    "area": "Hood College",
    "notes": "",
    "image": "http://lh3.ggpht.com/Oxmxpj6wkLnNLD70IaPgXVKMuua-ENoW2zjk5Q_cU2iutCihojhlql2UFqlb5jBQlKrbR27aRXqhIA23RK5J"
  },
  {
    "index": 17,
    "name": "Boys High School 1911",
    "street": "430 Park Ave",
    "city": "Frederick",
    "state": "MD",
    "zip": 21701,
    "latitude": 39.4216864463916,
    "longitude": -77.4161803722381,
    "area": "Hood College",
    "notes": "",
    "image": "http://lh6.ggpht.com/jWxEB6bAmY0g0VSwpL9SgAhLzXWSBmaQuTtKVDTRJvzaGQTvrUoNYS0k3uplKyDGUPIHa8DQfsbIZrw_ERo_"
  },
  {
    "index": 18,
    "name": "Schley Park",
    "street": "N College Pkwy",
    "city": "Frederick",
    "state": "MD",
    "zip": 21701,
    "latitude": 39.4183421768546,
    "longitude": -77.4187016487121,
    "area": "Hood College",
    "notes": "",
    "image": "http://lh3.ggpht.com/wyTv9cMFUS6UsBhW36s73ql-ZObk65AQ7NtzTtPE1Vb-s9HEB5j8SApzjNTVvb2CbYI_RGMWe_NoNK9r8HH3"
  },
  {
    "index": 19,
    "name": "US Post Office Frederick",
    "street": "1301 W 7th St",
    "city": "Frederick",
    "state": "MD",
    "zip": 21701,
    "latitude": 39.4299407594205,
    "longitude": -77.4202519655227,
    "area": "Hood College",
    "notes": "",
    "image": "http://lh5.ggpht.com/bm9Pl94x9eByP0kPACFRE6d3AOzvLgCYHyykaJpVd6YJ7HifONoQNQIkbN2MiNnaIyj7z-mtatg_QCOEIHbz"
  },
  {
    "index": 20,
    "name": "North Fourth Mural Project",
    "street": "604 N Market St",
    "city": "Frederick",
    "state": "MD",
    "zip": 21701,
    "latitude": 39.4218812130309,
    "longitude": -77.410038113594,
    "area": "North Market Street (7th Street out to Rt. 26)",
    "notes": "",
    "image": "http://lh5.ggpht.com/-fwgHlyiZVFARzDSx2w_DMRulCUNY4ugVRADOPjxb4_2gJ6ArrbZygvDne5T2dKV5U1xJV8DK7O6mHI6YYfYaQ"
  },
  {
    "index": 21,
    "name": "Staley Park Pavilion",
    "street": "11 W. 10th St.",
    "city": "Frederick",
    "state": "MD",
    "zip": 21701,
    "latitude": 39.4286272619672,
    "longitude": -77.4083644151687,
    "area": "North Market Street (7th Street out to Rt. 26)",
    "notes": "Staley Park",
    "image": "http://lh3.googleusercontent.com/RSo34GWjU9OOE-rfnnU_JCCbWBFVpIkUWCy6xFfjWYA4oyG2UHd-Ezz1cosacJsrC-dcITdFimBNwN6NZ21s"
  },
  {
    "index": 22,
    "name": "Frederick Cal Ripken Baseball Association",
    "street": "11 W. 10th St.",
    "city": "Frederick",
    "state": "MD",
    "zip": 21701,
    "latitude": 39.4281963299639,
    "longitude": -77.4090671539306,
    "area": "North Market Street (7th Street out to Rt. 26)",
    "notes": "Staley Park",
    "image": "http://lh3.ggpht.com/24cF2vAEh4-Igmrm5hYD0LhQFoVJQtq4v_WarJsw-u0sUqrdm_5QE-tqNNUEFwSR71cyqQyOvIE9SEHo3bDo7g"
  },
  {
    "index": 23,
    "name": "YMCA of Frederick County",
    "street": "1000 N Market St",
    "city": "Frederick",
    "state": "MD",
    "zip": 21701,
    "latitude": 39.4268372192664,
    "longitude": -77.4073451757431,
    "area": "North Market Street (7th Street out to Rt. 26)",
    "notes": "",
    "image": "http://lh6.ggpht.com/7QyEfaRQg88uFXnLEIEY3qm-aSo9lYDRrtk6b51tdhiHOn3-Q9RvHmklImeVwvlSCuyYeSjfzrdk2eKhHjDj"
  },
  {
    "index": 24,
    "name": "Frederick Bicycle Coalition Pump Track",
    "street": "N East St",
    "city": "Frederick",
    "state": "MD",
    "zip": 21701,
    "latitude": 39.4292653679235,
    "longitude": -77.4029195308685,
    "area": "North Market Street (7th Street out to Rt. 26)",
    "notes": "Frederick Pump Track",
    "image": "http://lh6.ggpht.com/bzFDNNk5L5NSx6Dcfw5Cm0jfAPZVCiOzZSnQVZ0xPU29cKd47Ef9X02YgtJqCGJeYKsjd_c93ZTM1AE_sRPM"
  },
  {
    "index": 25,
    "name": "Rose Hill Manor Park",
    "street": "1611 N Market St",
    "city": "Frederick",
    "state": "MD",
    "zip": 21701,
    "latitude": 39.4351945016318,
    "longitude": -77.4034076929092,
    "area": "North Market Street (7th Street out to Rt. 26)",
    "notes": "Rose Hill Manor",
    "image": "http://lh6.ggpht.com/Wcbphc87tlrt_9LaRsX25ov3W7zH9byMhaZ9TyksJFx4c4pwxgKmqVQWeycH-_MdhACraFAXXNl2WTywjCGI"
  },
  {
    "index": 26,
    "name": "Rose Hill Manor Ice House",
    "street": "1611 N Market St",
    "city": "Frederick",
    "state": "MD",
    "zip": 21701,
    "latitude": 39.4366901712461,
    "longitude": -77.4061059951782,
    "area": "North Market Street (7th Street out to Rt. 26)",
    "notes": "Rose Hill Manor",
    "image": "http://lh6.ggpht.com/L_7uquGk-s8Nz1s01xYGcEKVsvyitfdu3-KtL8ga3N9IZ-G_6HHJb4XM69TW3QKeASK27a-ZvK5pg2GEVtys"
  },
  {
    "index": 27,
    "name": "Farm And Family Exhibits",
    "street": "1611 N Market St",
    "city": "Frederick",
    "state": "MD",
    "zip": 21701,
    "latitude": 39.4374814959196,
    "longitude": -77.4070501327514,
    "area": "North Market Street (7th Street out to Rt. 26)",
    "notes": "Rose Hill Manor",
    "image": "http://lh6.ggpht.com/g8EdEK-9j7WHp29eC4hZc0kBSrN5XTtKLfqVpN-c87F0m174pTY9pUF8G8V2fYimTn7eE_qYjCUDP3ZSW-EW"
  },
  {
    "index": 28,
    "name": "Original Ebert's Ice Cream Fountain",
    "street": "1781 N Market St",
    "city": "Frederick",
    "state": "MD",
    "zip": 21701,
    "latitude": 39.4399797027855,
    "longitude": -77.3988318443298,
    "area": "North Market Street (7th Street out to Rt. 26)",
    "notes": "",
    "image": "http://lh6.ggpht.com/UeQnJwx7ZIbZaAR5IBxmieeG78lYCyPw4nmRH8ECYdEvpIsVQQWCfTcarYbxPWF0G2fBn-QfX-tg6oNOT0xi"
  },
  {
    "index": 29,
    "name": "River Walk Park",
    "street": "Schifferstadt Blvd",
    "city": "Frederick",
    "state": "MD",
    "zip": 21701,
    "latitude": 39.4316354246005,
    "longitude": -77.3891222476959,
    "area": "North Market Street (7th Street out to Rt. 26)",
    "notes": "",
    "image": "http://lh6.ggpht.com/purG2pvStJNcEB1RpUld_xTvkW3koommPzc0GEPS934zueBwUzQUGrAtWAE_h-ymC2rbmVFZ5pVz0WxOeMNh8g"
  },
  {
    "index": 30,
    "name": "Carillon",
    "street": "121 N Bentz St",
    "city": "Frederick",
    "state": "MD",
    "zip": 21701,
    "latitude": 39.4156484106247,
    "longitude": -77.4161159992218,
    "area": "Baker Park/Culler",
    "notes": "Bell Tower",
    "image": "http://lh5.ggpht.com/sG3gsfVar5ES--QLQgOH7O5edrwR5vStEmpf7Dp8t5aypm3S0969KzcGfNS5jzkbBMfUSXu8viJyQxwKDEVT"
  },
  {
    "index": 31,
    "name": "Monolith",
    "street": "121 N Bentz St",
    "city": "Frederick",
    "state": "MD",
    "zip": 21701,
    "latitude": 39.4165477256946,
    "longitude": -77.4152308702469,
    "area": "Baker Park/Culler",
    "notes": "Near Talley Rec Center",
    "image": "http://lh6.ggpht.com/dCpvSGglooqlZofDvDqRw_JXfqqr9EdaZy1_gMo8rqoyxNPBLfoe2O9dA_UpgF5EZ-SgJU0vXnv7cjS0E6Mh"
  },
  {
    "index": 32,
    "name": "Rawr",
    "street": "500 Fleming Ave",
    "city": "Frederick",
    "state": "MD",
    "zip": 21701,
    "latitude": 39.4155406578103,
    "longitude": -77.4197906255722,
    "area": "Baker Park/Culler",
    "notes": "Near Swimming Pool",
    "image": "http://lh3.ggpht.com/d7M1ab3RLM2PPOIMB9CfoxE0ToYXvyW3Wuq0ejTMPELDFXPkUf-Y1lxK_vIe8p-nDt2Cesge28T0au9_g5k"
  },
  {
    "index": 33,
    "name": "In Honor of David Ryan Mulkey",
    "street": "Culler Lake",
    "city": "Frederick",
    "state": "MD",
    "zip": 21701,
    "latitude": 39.4173309906578,
    "longitude": -77.4252301454544,
    "area": "Baker Park/Culler",
    "notes": "Culler Lake",
    "image": "http://lh6.ggpht.com/JcB-BItyDMB1U9dOMn__o_ave8qEOeDmq5bFVvhpYQ0TnRNV7dGiK7EWbUj2oKnaa0k0EZyu5mILuQ3f0lt9"
  },
  {
    "index": 34,
    "name": "Sanford G. Blum Memorial Bench",
    "street": "Culler Lake",
    "city": "Frederick",
    "state": "MD",
    "zip": 21701,
    "latitude": 39.4181018142516,
    "longitude": -77.4245220422744,
    "area": "Baker Park/Culler",
    "notes": "Culler Lake, Frederick High School",
    "image": "http://lh3.ggpht.com/eadCZb6nDyTeMOfBxd7nSpBYK7C8ySa-GdjmNbtLyC7NBN5IqtriWpygM9x_5iThmMTVVjNg11fkt0fngJBs"
  },
  {
    "index": 35,
    "name": "Schifferstadt Architectural Museum",
    "street": "1110 Rosemont Ave",
    "city": "Frederick",
    "state": "MD",
    "zip": 21701,
    "latitude": 39.423497340745,
    "longitude": -77.4269735813141,
    "area": "Baker Park/Culler",
    "notes": "",
    "image": "http://lh6.ggpht.com/ZhGlVTq9VtoGtvaSdGrRMphdH6J1c0enXmwu5f2GQj-PXU-xoy9rs3PUGQcd5d5Iraj9csNpelwtjdGsYfMOGQ"
  },
  {
    "index": 36,
    "name": "Carrollton Park",
    "street": "441-445 Center St",
    "city": "Frederick",
    "state": "MD",
    "zip": 21701,
    "latitude": 39.4029738798034,
    "longitude": -77.4222904443741,
    "area": "Baker Park/Culler",
    "notes": "",
    "image": "http://lh5.ggpht.com/BDXWyROPiZCZVmA-l97BwyG9ZTVOhmGU8l3_qOC32Wv1UlmNP6cpA4JQWuL5I_yDILE-vWv9qwO7-kqvhtipsg"
  },
  {
    "index": 37,
    "name": "Trinity Methodist Church",
    "street": "703 W Patrick St",
    "city": "Frederick",
    "state": "MD",
    "zip": 21701,
    "latitude": 39.4150101799886,
    "longitude": -77.4308305978775,
    "area": "Baker Park/Culler",
    "notes": "",
    "image": "http://lh6.ggpht.com/Yc5fpLCcnFejs-DqGsXTy_uJJFcvsFc0wGEZQ9C7U4A7F-q7PVK8IwPlYfO_0RzKq7HstzcXFhT0MzVcRWk"
  },
  {
    "index": 38,
    "name": "Catoctin Park",
    "street": "110-112 Catoctin Ave",
    "city": "Frederick",
    "state": "MD",
    "zip": 21701,
    "latitude": 39.4111848180734,
    "longitude": -77.4256378412246,
    "area": "Baker Park/Culler",
    "notes": "Thomas Playground, Near China Garden & Rita's",
    "image": "http://lh5.ggpht.com/k1zNd25KP6C6gQUWod6LubY9o2-GMlALm2x4n5FtPxYi4dT0ae-TQW1rYRy2em2fTPNQuUDb2tDQwWRxi63U8A"
  },
  {
    "index": 39,
    "name": "People's Baptist Church",
    "street": "6648 Carpenter Rd",
    "city": "Frederick",
    "state": "MD",
    "zip": 21703,
    "latitude": 39.4152132540066,
    "longitude": -77.4782681465149,
    "area": "Route 40 (Waverly Side)",
    "notes": "",
    "image": "http://lh5.ggpht.com/zDJgYIOx0oxDtcvQMpFC7kysYLZ_SF0Fqrb_MwImO0aYbPFBNZ1b9WzDnRQg6imPqZ2DKcfGIhBetta31z-_"
  },
  {
    "index": 40,
    "name": "Barbara Fritchie",
    "street": "1513 W Patrick St",
    "city": "Frederick",
    "state": "MD",
    "zip": 21702,
    "latitude": 39.423949021021,
    "longitude": -77.4693846702575,
    "area": "Route 40 (Waverly Side)",
    "notes": "",
    "image": "http://lh6.ggpht.com/UX4JCTrgeAgtPrMbH80VS_FS08YlGywE_8ERN71YoQJsl-6xXQAugXJut7TW-GxFcQIA-F6_8I74Ogk8muA"
  },
  {
    "index": 41,
    "name": "Baker Place Gazebo",
    "street": "1300 Baker Pl E",
    "city": "Frederick",
    "state": "MD",
    "zip": 21702,
    "latitude": 39.4237501163061,
    "longitude": -77.4545735120773,
    "area": "Route 40 (Waverly Side)",
    "notes": "",
    "image": "http://lh5.ggpht.com/M1u0d-Ad5M7R6WQB2BcMqOFtyVsLHDsd0jqnnIvRm1hOA1RCrxk-7msiD1jHHU-BSNki_YzF5w8KgHcQ8do2"
  },
  {
    "index": 42,
    "name": "McD Extra Leet Fountain",
    "street": "1275 W Patrick St",
    "city": "Frederick",
    "state": "MD",
    "zip": 21702,
    "latitude": 39.4188726293217,
    "longitude": -77.4493646621704,
    "area": "Route 40 (Waverly Side)",
    "notes": "McDonalds (Rt. 40)",
    "image": "http://lh6.ggpht.com/FLpGQ_Zw6WPOcoA_9OquaCAW6jPR8cAl8sQEWKQKoFHMJWm4T8btwFN2w021pwdMU_hZtopvOXkNri4hm5Va"
  },
  {
    "index": 43,
    "name": "Westridge Clock Tower",
    "street": "1053 W Patrick St",
    "city": "Frederick",
    "state": "MD",
    "zip": 21703,
    "latitude": 39.4189803769858,
    "longitude": -77.445330619812,
    "area": "Route 40 (Waverly Side)",
    "notes": "",
    "image": "http://lh4.ggpht.com/ehpbm_9zyO6LTdeRhiCeFC24rnJda-YAAFNs2P_C43Lbqpq6wdgWMGG6LDJqSQUgVGCEaUW8u9iMcISJ5hQ8"
  },
  {
    "index": 44,
    "name": "Dutch's Waterfall",
    "street": "581 Himes Ave",
    "city": "Frederick",
    "state": "MD",
    "zip": 21703,
    "latitude": 39.4077737278963,
    "longitude": -77.436870932579,
    "area": "Route 40 (Hillcrest side)",
    "notes": "Dutch's Daughter",
    "image": "http://lh5.ggpht.com/D3SgCXDHd9AFbmxu_7x3y6cwc69AhTVD110O4o8u9VH4EqPCfpZR0Zr6jz9WXjNRKvNBlD8rcGZ2Mukkl30p"
  },
  {
    "index": 45,
    "name": "Hill Street Park",
    "street": "100 Hill Street",
    "city": "Frederick",
    "state": "MD",
    "zip": 21703,
    "latitude": 39.41382487902,
    "longitude": -77.4480557441711,
    "area": "Route 40 (Hillcrest side)",
    "notes": "",
    "image": "http://lh4.ggpht.com/zISbVpgJTrWFDP3Nn72mCW_opu34qahZYYWae1rbRa_7Lxo2f3yj8PALa9Fhj2CzQhHcdxZq47q9AjCNRYXE"
  },
  {
    "index": 46,
    "name": "Hill Street Park pavillion",
    "street": "100 Hill Street",
    "city": "Frederick",
    "state": "MD",
    "zip": 21703,
    "latitude": 39.4121214916408,
    "longitude": -77.4489086866378,
    "area": "Route 40 (Hillcrest side)",
    "notes": "",
    "image": "http://lh3.googleusercontent.com/-P4veEeNnc-D_XyVhCRaTnoqUOwiVvIc7NQ2_7m-X4zPbShGgwF9MkSWq4oNQ9_btcZl3uH7C94lwlr6nsqKKQ"
  },
  {
    "index": 47,
    "name": "Victory Baptist Church",
    "street": "6513 Himes Ave",
    "city": "Frederick",
    "state": "MD",
    "zip": 21703,
    "latitude": 39.4031894241075,
    "longitude": -77.4388772249222,
    "area": "Route 40 (Hillcrest side)",
    "notes": "",
    "image": "http://lh4.ggpht.com/qRk1IRJXmcmrABZ3cncgb913IUp1poDwKohh0sOOnEgezgqVVgw1Y7IIbl-1PZD4eq2umfB1TcJP1ICSp4Pg"
  },
  {
    "index": 48,
    "name": "Frederick Adventist Academy",
    "street": "6437 Jefferson Pike",
    "city": "Frederick",
    "state": "MD",
    "zip": 21703,
    "latitude": 39.4023189526384,
    "longitude": -77.4433672428131,
    "area": "Route 40 (Hillcrest side)",
    "notes": "",
    "image": "http://lh5.ggpht.com/6VOWuKZuym7xdJd3yJb6lapufNfu3tW82jwZV7qnYBskyD--Wnci0TmHFnfuv7IdmCIDPjghPJ-ATIPksZIN"
  },
  {
    "index": 49,
    "name": "Battle of Frederick",
    "street": "996 W Patrick St",
    "city": "Frederick",
    "state": "MD",
    "zip": 21703,
    "latitude": 39.4157395859529,
    "longitude": -77.4377882480621,
    "area": "Route 40 (Hillcrest side)",
    "notes": "Red Horse",
    "image": "http://lh5.ggpht.com/xAVd_vm03_rLkDedoWpt6Wkq_EgVnLROO3WnoNkaP465ldlDiAV7vqH3iE8_21v046F8y7EaJBgM-sBkKgaI"
  },
  {
    "index": 50,
    "name": "Ballenger Creek Trail Head",
    "street": "5225 Corporate Dr",
    "city": "Frederick",
    "state": "MD",
    "zip": 21703,
    "latitude": 39.3776179072673,
    "longitude": -77.4215394258499,
    "area": "Ballenger Creek",
    "notes": "Entrance is on Corporate Drive",
    "image": "http://lh4.ggpht.com/5KDnUt_iYw-CQhYL20yYLGioI-Z11-1_TVkLOMsXVv2DnvrzRQ-oIj1K0m1-KIGXFm6T-0dr8qj_GDkmn5u1TQ"
  },
  {
    "index": 51,
    "name": "QR Fit Trail Station 2",
    "street": "5433-5465 Duke Ct",
    "city": "Frederick",
    "state": "MD",
    "zip": 21703,
    "latitude": 39.3766683303903,
    "longitude": -77.4246025085449,
    "area": "Ballenger Creek",
    "notes": "Have to park on Duke Ct and can walk down or walk from the trail head entrance",
    "image": "http://lh5.ggpht.com/0rEhR5nwEl2Gnlf8mBNojyzf2TgbdrW6wjlIRdXC04BWyGHvN6BT0zrKtiaMd6iy_xvFzFoKgGp9JXKrM_8"
  },
  {
    "index": 52,
    "name": "Ballenger Creek Trail End",
    "street": "5250 Kingsbrook Dr",
    "city": "Frederick",
    "state": "MD",
    "zip": 21703,
    "latitude": 39.3768300496356,
    "longitude": -77.4320697784424,
    "area": "Ballenger Creek",
    "notes": "Park at Ballenger Elementary and walk the trail to your left to the gym",
    "image": "http://lh4.ggpht.com/mvJXQEPKUR-jt8R0vmvxJEz43KpuSX_GL8fxnsLt4RsaWT1G7GcYkAA3-oHqVMCud6pII6uJ89XCNIdwxIlDQg"
  },
  {
    "index": 53,
    "name": "Jackson Chapel",
    "street": "5609 Ballenger Creek Pike",
    "city": "Frederick",
    "state": "MD",
    "zip": 21703,
    "latitude": 39.386851765132,
    "longitude": -77.4414843320846,
    "area": "Ballenger Creek",
    "notes": "",
    "image": "http://lh5.ggpht.com/yZHlteUHVjUxDXYwHcdX_dmefBSQGlbYCEHwsjCJKvLNIeZDPbqaX2UT8IPbpAPpTRa4i7K_7PuDGNRDhr3f"
  },
  {
    "index": 54,
    "name": "Ballenger Creek Park Community Building",
    "street": "5420 Ballenger Creek Pike",
    "city": "Frederick",
    "state": "MD",
    "zip": 21703,
    "latitude": 39.3838499624199,
    "longitude": -77.4448639154434,
    "area": "Ballenger Creek",
    "notes": "Ballenger Creek Park",
    "image": "http://lh3.googleusercontent.com/b4tH7MGBWQXaGDU2v6ntb1HUhNdxUMccrLSOYwi2GAbbE3x0bhMWjcXmjzuaFXPAjekvs9QL1E4DDPqhqtuE"
  },
  {
    "index": 55,
    "name": "Ballenger Creek Dog Park Sign",
    "street": "5420 Ballenger Creek Pike",
    "city": "Frederick",
    "state": "MD",
    "zip": 21703,
    "latitude": 39.3811299854864,
    "longitude": -77.448763847351,
    "area": "Ballenger Creek",
    "notes": "Ballenger Creek Park",
    "image": "http://lh5.ggpht.com/M6E3Sjuokom88P3z3I2jg3PhqcXW_O0vn5Y14-IpEEQpRPQJXYn8-BS-YIVD_5uZPLvS17q3E6758XtMv-U"
  },
  {
    "index": 56,
    "name": "Tuscarora Creek Playground",
    "street": "8916-8932 Walter Martz Rd",
    "city": "Frederick",
    "state": "MD",
    "zip": 21702,
    "latitude": 39.4714751063722,
    "longitude": -77.4324184656143,
    "area": "North End of Frederick",
    "notes": "Tuscarora Creek Pool",
    "image": "http://lh4.ggpht.com/p8L7qj-EjVYqG1c_mSZ1ucoKlHcOACS9jNTxWekG1E620jE8cNMqwz6YdL1xmKVVrAnrE5E9CTHKvcMQa00"
  },
  {
    "index": 57,
    "name": "Willow Brook",
    "street": "McClellan Dr",
    "city": "Frederick",
    "state": "MD",
    "zip": 21702,
    "latitude": 39.4681497917989,
    "longitude": -77.4136644601822,
    "area": "North End of Frederick",
    "notes": "",
    "image": "http://lh3.ggpht.com/U0nvfCRWAVIEKzFGLUu0GWsxJdyohEwpO-46DcHWoXBygXP_3uSTXk24sQAjKXJcI4sKoePxmyayg2grO8jh"
  },
  {
    "index": 58,
    "name": "Science-Tech Hall",
    "street": "7932 Opossumtown Pike",
    "city": "Frederick",
    "state": "MD",
    "zip": 21702,
    "latitude": 39.4510693336846,
    "longitude": -77.4187660217285,
    "area": "North End of Frederick",
    "notes": "Frederick Community College",
    "image": "http://lh4.ggpht.com/vSI2LVMHL3PMaRIklqcoyNSqcZ1WVjYkO8qRuYgL5LdplK1UeIl06zFX-Lw8sIvvJ6V_-RghJgUitJjWJiFz"
  },
  {
    "index": 59,
    "name": "Library Building",
    "street": "7932 Opossumtown Pike",
    "city": "Frederick",
    "state": "MD",
    "zip": 21702,
    "latitude": 39.4527179214407,
    "longitude": -77.4169635772705,
    "area": "North End of Frederick",
    "notes": "Frederick Community College",
    "image": "http://lh5.ggpht.com/73cNBfao0bu0iOPccY44u8xNxCz6JUGwyr6S8MMttCulyVbXb7NN7a3CD5zFlFw4hpqwfwU-mW1cF9ij6A"
  },
  {
    "index": 60,
    "name": "Frederick Community College Campus Map",
    "street": "7932 Opossumtown Pike",
    "city": "Frederick",
    "state": "MD",
    "zip": 21702,
    "latitude": 39.4519847603488,
    "longitude": -77.4169152975082,
    "area": "North End of Frederick",
    "notes": "Frederick Community College",
    "image": "http://lh3.ggpht.com/aYfsbIImhXrKPi8BSG0ClwJnJWZOtCbSXulTOtOpmbQtNABmBRpXUN69aepEtSFdRmv5LxqZwBsxrfyKATFr"
  },
  {
    "index": 61,
    "name": "International Community Church",
    "street": "123 Byte Dr",
    "city": "Frederick",
    "state": "MD",
    "zip": 21702,
    "latitude": 39.4570090371682,
    "longitude": -77.4100703001022,
    "area": "North End of Frederick",
    "notes": "",
    "image": "http://lh4.ggpht.com/I7oQDO_frH1_ztvifF-WKvL9wVUi_m1-SJtjcqo8vnUlWQzLphnJASHkmYjxfUucKVp5rWCgBbFol3_TuDSbeg"
  },
  {
    "index": 62,
    "name": "Bike Sculpture",
    "street": "140 Thomas Johnson Drive",
    "city": "Frederick",
    "state": "MD",
    "zip": 21701,
    "latitude": 39.4443751693185,
    "longitude": -77.4070179462433,
    "area": "North End of Frederick",
    "notes": "",
    "image": "http://lh5.ggpht.com/xsP8ChXqsV0XUY1fnRbL0n5AeysTdblETJANUcwlaz6n4bh1_gHe7rl62uQ3p8KDjdVDBz9pzhOZA1Hj1Cqz"
  },
  {
    "index": 63,
    "name": "Stone Fountain",
    "street": "70 Thomas Johnson Dr #200",
    "city": "Frederick",
    "state": "MD",
    "zip": 21702,
    "latitude": 39.4494082799095,
    "longitude": -77.4019807577133,
    "area": "North End of Frederick",
    "notes": "",
    "image": "http://lh3.ggpht.com/uy-BYbf5knur_383mJ5VzHasjLuNyd4zBB1j_mC9g9jchE16LanJro3PONDDv3Kqr3wOAI33qDiTnfaJdpbB"
  },
  {
    "index": 64,
    "name": "Church of the Nazarene",
    "street": "7899 Opossumtown Pike",
    "city": "Frederick",
    "state": "MD",
    "zip": 21702,
    "latitude": 39.4503195861389,
    "longitude": -77.4115294218063,
    "area": "North End of Frederick",
    "notes": "",
    "image": "http://lh4.ggpht.com/ISpUGN6IoS0vR_XuIArsQTkbFHAPJ4SXzRN_6ldiuWtTysMjxm_J8clyRuPFAuhPaG4uwn0PpNVMMKsf1s6D"
  },
  {
    "index": 65,
    "name": "Pinecliff Park",
    "street": "8350 Pinecliff Park Rd",
    "city": "Frederick",
    "state": "MD",
    "zip": 21704,
    "latitude": 39.3847994416031,
    "longitude": -77.3771166801452,
    "area": "East End of Frederick",
    "notes": "Pinecliff Park",
    "image": "http://lh6.ggpht.com/ypQN8qf_Xy5T7Vf0ZpsZ9AlJhZrFeKoQmoXMiiysfYvPiGXDXPoYsXf01flOpOgI3JgUVsiUFvER439jVN3dgg"
  },
  {
    "index": 66,
    "name": "Monocacy River Water Trail (Pinecliff)",
    "street": "8350 Pinecliff Park Rd",
    "city": "Frederick",
    "state": "MD",
    "zip": 21704,
    "latitude": 39.3889620712352,
    "longitude": -77.3784899711609,
    "area": "East End of Frederick",
    "notes": "Pinecliff Park",
    "image": "http://lh3.ggpht.com/6-ypHsl-XXSbtrFvSgMyyjDfvJC9-RDINWeroazdYlJcf-73lM7fOxHQSjfd_G0QcFhoMmTvF3n8Jw2m4yQ"
  },
  {
    "index": 67,
    "name": "Pinecliff Park Sled Run",
    "street": "8350 Pinecliff Park Rd",
    "city": "Frederick",
    "state": "MD",
    "zip": 21704,
    "latitude": 39.3899073350023,
    "longitude": -77.3745203018188,
    "area": "East End of Frederick",
    "notes": "Pinecliff Park",
    "image": "http://lh5.ggpht.com/_PuRZIBr0yeuwXMoe3iSI5q4aKVvP8fRVnLMKl3raj9EcpsZcu9YFe57YE_JlDfGrZd9_lEIWHo1a2hmuPQ"
  },
  {
    "index": 68,
    "name": "General LaFayette",
    "street": "1501-6851 E Patrick St",
    "city": "Frederick",
    "state": "MD",
    "zip": 21701,
    "latitude": 39.4048142751159,
    "longitude": -77.3833930492401,
    "area": "East End of Frederick",
    "notes": "Near the MVA",
    "image": "http://lh6.ggpht.com/Za7C3cWn9l-95x56b0gBCr-vdES7rGf1oD6TY1uald_eqCF2nIZEWcf8diW_v5cIOd-OAs_7mmRfmhadwbb-"
  },
  {
    "index": 69,
    "name": "I-70 Driving Range",
    "street": "8400 E Patrick St",
    "city": "Frederick",
    "state": "MD",
    "zip": 21701,
    "latitude": 39.4024930478014,
    "longitude": -77.3708510398864,
    "area": "East End of Frederick",
    "notes": "",
    "image": "http://lh3.googleusercontent.com/AqebPm02wq2awtWoqq0JjDQvLZ_8nqaZ6-SarYAWxbIR1FVCeoU3iFHDOreTyf_2sJmQLqkFsPwxmkRpjHA"
  },
  {
    "index": 70,
    "name": "Frederick Welcome Mural - West",
    "street": "1303 E Patrick St",
    "city": "Frederick",
    "state": "MD",
    "zip": 21701,
    "latitude": 39.4064681024453,
    "longitude": -77.3860538005828,
    "area": "East End of Frederick",
    "notes": "BB&T Bank - park in Taco Bell parking lot during banking hours",
    "image": "http://lh4.ggpht.com/4PqU38Pb7nnXvnkTdPPpkgNDnoqqm-s5FGc9FE4Y9Mt93Tdtze-7M8avpQCjA1tnq-qKPDWbE5RjpzMY2gvh"
  },
  {
    "index": 71,
    "name": "Towers of Eastgate Center",
    "street": "1240 E Patrick St",
    "city": "Frederick",
    "state": "MD",
    "zip": 21701,
    "latitude": 39.4074587220884,
    "longitude": -77.3898518085479,
    "area": "East End of Frederick",
    "notes": "By Roy Rogers",
    "image": "http://lh5.ggpht.com/CTkKRVkvz4p3Kv90J9spux_zkKSpO9uqAo4ekblbcBhey9Xkvb6ynXSDskV9i2cxviSLS_IGviIhH6nxb9U"
  },
  {
    "index": 72,
    "name": "Manasses J Grove Park",
    "street": "Grove Park",
    "city": "Frederick",
    "state": "MD",
    "zip": 21701,
    "latitude": 39.4080721531386,
    "longitude": -77.3966324329376,
    "area": "East End of Frederick",
    "notes": "Off of E. South Street, near the Fair Grounds",
    "image": "http://lh6.ggpht.com/50X3R4szpOWr4ubferdOVybJ_Sw3PhaLwTA4Ec9kHrRmmIq1WOX4puwHjak_t80RxRVEGawOCGyMNYOu6bMhBw"
  },
  {
    "index": 73,
    "name": "Wegmans Cow",
    "street": "7830 Wormans Mill Rd",
    "city": "Frederick",
    "state": "MD",
    "zip": 21701,
    "latitude": 39.4461316212512,
    "longitude": -77.4000120162963,
    "area": "Rt. 26",
    "notes": "Can only reach the gym from the back loading dock",
    "image": "http://lh3.ggpht.com/0pGGlSlA0XbFcKkA9a_1Yt172ckwmZYYFuOqpPZ7cPaopqPR3Y-tm0ZF2uNSx1-ms-D1Nfj_kv5ZGuxL9jrcvQ"
  },
  {
    "index": 74,
    "name": "Sprint Store",
    "street": "7810 Wormans Mill Rd #24a",
    "city": "Frederick",
    "state": "MD",
    "zip": 21701,
    "latitude": 39.4467115720663,
    "longitude": -77.3976302146911,
    "area": "Rt. 26",
    "notes": "Rt. 26",
    "image": "http://lh3.googleusercontent.com/cwxV6b0ceIB3MJFM8a2YYhdPXAf0jVa377Ikk_hb-2lma2mnd_XfdWv5QAwoXWnlr7dnACi9owFE6L-cTg4M"
  },
  {
    "index": 75,
    "name": "Dead Ringer Moe's Portrait",
    "street": "200 A Shorebird St.",
    "city": "Frederick",
    "state": "MD",
    "zip": 21701,
    "latitude": 39.4472293812127,
    "longitude": -77.3951894044876,
    "area": "Rt. 26",
    "notes": "Noodles and Company is the address",
    "image": "http://lh6.ggpht.com/O6Yu3OZYEMTz1vd04Xvm8bHRACWGuTGyHl9kFDc4GULXcl7pC7UzQzrYPZzo963mYr9dzR0_4vhFoXUgI8I"
  },
  {
    "index": 76,
    "name": "Monocacy River Water Trail (Rivermist)",
    "street": "Riverside Park Boat Ramp",
    "city": "Frederick",
    "state": "MD",
    "zip": 21701,
    "latitude": 39.4439236214513,
    "longitude": -77.3829102516174,
    "area": "Rt. 26",
    "notes": "",
    "image": "http://lh3.ggpht.com/54UZTgfSLNBsEbsiP1h6gsiwXhbmQUzrA9LslLC6OV_53Ujq6EPpPMBfbh0AgJKEok7HDvgxkQxvsg_AW6Km"
  },
  {
    "index": 77,
    "name": "Waterside Swimming Pool Silo",
    "street": "Riverside Place",
    "city": "Frederick",
    "state": "MD",
    "zip": 21701,
    "latitude": 39.451951622942,
    "longitude": -77.3750567436218,
    "area": "Rt. 26",
    "notes": "Off Rt. 26",
    "image": "http://lh3.ggpht.com/HmwR_uWxT3c-x2aAexnfcK3MgDWrqq52Bm_CDOwencWms3CmvgjIDkDOpX7aGkYn7LPoONuNIG9OO9gpAUQ"
  },
  {
    "index": 78,
    "name": "Walkersville Lanes",
    "street": "44 W Pennsylvania Ave",
    "city": "Walkersville",
    "state": "MD",
    "zip": 21793,
    "latitude": 39.4847706351787,
    "longitude": -77.3576706647873,
    "area": "Biggs Ford Rd",
    "notes": "",
    "image": "http://lh5.ggpht.com/I5o7w5EV7WAPPNwvvqb7vMGcTh17rZTP-ll4rUB9ftWNcDQdefC3Qe8zX4-AFWHI9l-zfJBaXNt42pT0GkXd"
  },
  {
    "index": 79,
    "name": "St. Timothy Roman Catholic Church",
    "street": "8651 Biggs Ford Road",
    "city": "Walkersville",
    "state": "MD",
    "zip": 21793,
    "latitude": 39.4819014010022,
    "longitude": -77.3645424842834,
    "area": "Biggs Ford Rd",
    "notes": "",
    "image": "http://lh3.ggpht.com/HmXkYD5TSKF6ksBy0OsDiuWPe2Dp_xtDCQMNWZPIYXD2_tDmHZxNHM0B0Xz6WCbQC2rVeA2W3EFlUE5vNcg"
  },
  {
    "index": 80,
    "name": "Fountain Rock Park",
    "street": "8500 Nature Center Pl",
    "city": "Walkersville",
    "state": "MD",
    "zip": 21793,
    "latitude": 39.4749410496641,
    "longitude": -77.3692363500595,
    "area": "Biggs Ford Rd",
    "notes": "",
    "image": "http://lh4.ggpht.com/mJ-fO_RjOKgmCwgB14hpXtcyt0Y8q7HlbaPFk7E1p0qvb4nmq90cnej_sf2yHwZFSLfAz8WqUX7RVSLVyh6E"
  },
  {
    "index": 81,
    "name": "Fountain Rock Lime Kilns",
    "street": "8599 Nature Center Pl",
    "city": "Walkersville",
    "state": "MD",
    "zip": 21793,
    "latitude": 39.4753178622435,
    "longitude": -77.3678040504455,
    "area": "Biggs Ford Rd",
    "notes": "",
    "image": "http://lh5.ggpht.com/7UCzM0Ykq4g4lHdV_l9K0vsjbW3kWm5J6bW7Hp-UUKf6pnSmzYrMgwY5ESBrlr2x4gq4ng1Vr9asGJB_YkE"
  },
  {
    "index": 82,
    "name": "Jimmy McGee Memorial Park",
    "street": "2190 Old Farm Dr",
    "city": "Frederick",
    "state": "MD",
    "zip": 21702,
    "latitude": 39.4435052120987,
    "longitude": -77.4372518062591,
    "area": "Rosemont/Yellow Springs",
    "notes": "By Dunkin Donuts",
    "image": "http://lh6.ggpht.com/OFnMyQn9e6sp0fjM3H7cS_hg7fOPTSUoo6uzR0DUKD7AfWo3qFCeH7kXTvvWI1YJGtm6E9CO_DIaAKlBPFFw"
  },
  {
    "index": 83,
    "name": "Walnut Ridge Ballpark",
    "street": "1101-1153 Rocky Springs Rd",
    "city": "Frederick",
    "state": "MD",
    "zip": 21702,
    "latitude": 39.4387699686923,
    "longitude": -77.4468219280243,
    "area": "Rosemont/Yellow Springs",
    "notes": "",
    "image": "http://lh3.googleusercontent.com/JLLmh_heZXEzOctPo0XosfQ-HtUia3qKcQri-Sjs0sWmAzVe3banfIEAnsKLx1jrhDatZLJNVbwNfzSSvboHsA"
  },
  {
    "index": 84,
    "name": "Yellow Springs Lions Club",
    "street": "8829 Yellow Springs Rd",
    "city": "Frederick",
    "state": "MD",
    "zip": 21702,
    "latitude": 39.4767754037734,
    "longitude": -77.4576365947723,
    "area": "Rosemont/Yellow Springs",
    "notes": "",
    "image": "http://lh5.ggpht.com/oDV-yrc0X62HZDdjqMmXpVDEeJb8-uS8zMXhcCT8jHfJylVmXjfXMYT_cD1SSWVeqoe6oUrjeFfMDFblXd8"
  },
  {
    "index": 85,
    "name": "Brook Hill Church Bell",
    "street": "8946 Indian Springs Rd",
    "city": "Frederick",
    "state": "MD",
    "zip": 21702,
    "latitude": 39.4797856272505,
    "longitude": -77.4618154764175,
    "area": "Rosemont/Yellow Springs",
    "notes": "Brook Hill United Methodist Church",
    "image": "http://lh4.ggpht.com/mlDp5G7qWcx4XV5-waSWnpyITVm_XeNRpaNoXzeOxhqFpgCkyLbOqMQq_wsi4aX6aF8mbsHFU5o74v7pp6UGiQ"
  },
  {
    "index": 86,
    "name": "Whittier Water Tower",
    "street": "Highpoint View Ct",
    "city": "Frederick",
    "state": "MD",
    "zip": 21702,
    "latitude": 39.457021462795,
    "longitude": -77.458484172821,
    "area": "Rosemont/Yellow Springs",
    "notes": "",
    "image": "http://lh3.googleusercontent.com/y_Hcbybi8sdEr0RGLZxSzfzRQgOUtodNirC_70ezQzfw7CnbJv-bQPSDoiZoBIUfoDKXSbNcSBnYVdOw9xPI"
  },
  {
    "index": 87,
    "name": "Whittier Liquors",
    "street": "2401 Whittier Dr",
    "city": "Frederick",
    "state": "MD",
    "zip": 21702,
    "latitude": 39.4543623281275,
    "longitude": -77.4470579624176,
    "area": "Rosemont/Yellow Springs",
    "notes": "",
    "image": "http://lh3.googleusercontent.com/XZ42wxXMy5vNuMjdDTZqoQh3MjT0Jb5g3RMFO3saz89OEtEC0oU73UUPYd4J4vYz5LiLboz8XAZeX_PN6s02"
  },
  {
    "index": 88,
    "name": "Wetherburne Park",
    "street": "Wetherburne Way",
    "city": "Frederick",
    "state": "MD",
    "zip": 21702,
    "latitude": 39.4571043002497,
    "longitude": -77.4516069889068,
    "area": "Rosemont/Yellow Springs",
    "notes": "",
    "image": "http://lh3.googleusercontent.com/f5tYJADuJJLHE38kkTOnZBwCFDORrok8L5JXRfSerywpWPWu9qNZsOHCcxNeLCTZkeTWvIDyXVWJHA73hvU0"
  },
  {
    "index": 89,
    "name": "Francis Scott Key",
    "street": "515 S Market St",
    "city": "Frederick",
    "state": "MD",
    "zip": 21701,
    "latitude": 39.4063396110004,
    "longitude": -77.4129939079284,
    "area": "New Design Road",
    "notes": "Mt. Olive Cementary",
    "image": "http://lh5.ggpht.com/S6SzM2vR5KfGyl2a6Fx311Cqiqu6UGQTs4w24VV1UvYd6kXAvBwYvs0fA9AZ6H0xYk806c-OL60JxacarmD9"
  },
  {
    "index": 90,
    "name": "Key Memorial Chapel",
    "street": "515 S Market St",
    "city": "Frederick",
    "state": "MD",
    "zip": 21701,
    "latitude": 39.406244278485,
    "longitude": -77.4136966466903,
    "area": "New Design Road",
    "notes": "Mt. Olive Cementary",
    "image": "http://lh3.googleusercontent.com/IqKP42Niuuyb05XOQA8Ttx-BQq1mv0kGGOmsBZznjphB2Q3ZFZXDH7_k2jTmIMGCWW-eXcTTqCNH1kNNASFqiA"
  },
  {
    "index": 91,
    "name": "Frederick County World War II Memorial",
    "street": "515 S Market St",
    "city": "Frederick",
    "state": "MD",
    "zip": 21701,
    "latitude": 39.4003499889998,
    "longitude": -77.4178433418274,
    "area": "New Design Road",
    "notes": "Mt. Olive Cementary",
    "image": "http://lh3.googleusercontent.com/c2Xe9y2c44bjb0dB8QdFYJ9w8k97nkCyTS2GOhIAruUQuunX92YXl3pnObAP1Le4ns4srMZBqLOKMaC6odaG"
  },
  {
    "index": 92,
    "name": "Thomas Tabernalce Holiness Church",
    "street": "517 S Market St",
    "city": "Frederick",
    "state": "MD",
    "zip": 21701,
    "latitude": 39.4055230630595,
    "longitude": -77.412012219429,
    "area": "New Design Road",
    "notes": "",
    "image": "http://lh5.ggpht.com/YGA1QpjJTAL-XRNqiOWtn9ABGziXjKkIUmQ6vfxHvTvTyWBrNHmQmXo2QDRXDK03zLkOy90JFshSZzinWtto"
  },
  {
    "index": 93,
    "name": "Loats Park",
    "street": "21 Stadium Dr",
    "city": "Frederick",
    "state": "MD",
    "zip": 21703,
    "latitude": 39.4026961582756,
    "longitude": -77.4137556552887,
    "area": "New Design Road",
    "notes": "Keys Stadium",
    "image": "http://lh6.ggpht.com/KQsCjcsCGR8s2H2e6DGNYmVkvKlb7HOm_S7A1eAJ4uvM752Y5ZHV7s8nQU6aeNVkPB57fFZxSJIzE8gm7mI"
  },
  {
    "index": 94,
    "name": "Three Fountains",
    "street": "7101 Guilford Drive, Suite 204",
    "city": "Frederick",
    "state": "MD",
    "zip": 21701,
    "latitude": 39.3954957380735,
    "longitude": -77.4184173345566,
    "area": "New Design Road",
    "notes": "",
    "image": "http://lh5.ggpht.com/tCvQM_25QSiBWzgdmmXP5OHBuBInwvwPvRK3joRsPjTXmgiAyKkH0LmuYqQXgmA10wlwk3tWJFMkY-Vt4eUe"
  },
  {
    "index": 95,
    "name": "Parkway Church",
    "street": "5665 New Design Rd",
    "city": "Frederick",
    "state": "MD",
    "zip": 21703,
    "latitude": 39.3892481392528,
    "longitude": -77.422467470169,
    "area": "New Design Road",
    "notes": "",
    "image": "http://lh5.ggpht.com/0SzpLp-QKFUKnFriEimccO5cNBTB3rGUn3lfgWdizLCYAHFiu9M8XEnj_2QHycrjlTtzYFm7tRKLtaBDO98"
  },
  {
    "index": 96,
    "name": "Church of the Redeemer",
    "street": "5606 Buckeystown Pike",
    "city": "Frederick",
    "state": "MD",
    "zip": 21704,
    "latitude": 39.3864910580955,
    "longitude": -77.4127793312072,
    "area": "Rt. 355/Rt. 85",
    "notes": "By Sam's Club",
    "image": "http://lh6.ggpht.com/jUekJjEKaGgBCHOuANTH55rZK67uYIP_7ATdjNDOpre6bcUrLLufpjCirJyeS3mDzO98XSLZDngEY78onkG66A"
  },
  {
    "index": 97,
    "name": "FSK Mall Charity Fountain",
    "street": "5500 Buckeystown Pike",
    "city": "Frederick",
    "state": "MD",
    "zip": 21703,
    "latitude": 39.3826475466645,
    "longitude": -77.4057573080062,
    "area": "Rt. 355/Rt. 85",
    "notes": "FSK Mall",
    "image": "http://lh6.ggpht.com/rv5J7nP0mpfX-WEnloZdeKjH3xhzkl2wxH7--9yzJV3js2LTPwtqLt3KzrNxmsXMXBnEeU-2isFKVgSybw9Z"
  },
  {
    "index": 98,
    "name": "The Lost Order",
    "street": "4632 Araby Church Road",
    "city": "Frederick",
    "state": "MD",
    "zip": 21704,
    "latitude": 39.3770788477431,
    "longitude": -77.3956131935119,
    "area": "Rt. 355/Rt. 85",
    "notes": "",
    "image": "http://lh6.ggpht.com/d8cU7XpRkVItFDK_BRh3VoCuVVAP8QjsMwct1OhXxcK55RezUgkGguKn60GwxRpIqIc3Er-a3UMgEbtytRg"
  },
  {
    "index": 99,
    "name": "Monocacy Visitors Center",
    "street": "4632 Araby Church Road",
    "city": "Frederick",
    "state": "MD",
    "zip": 21704,
    "latitude": 39.3772322728007,
    "longitude": -77.3953074216842,
    "area": "Rt. 355/Rt. 85",
    "notes": "",
    "image": "http://lh3.ggpht.com/byh44w9W0Um7jjEayygQ8Zz3iEizseTOUV7Cgbmtj-94829UavkYw1lDd2BL_zfiyzJibAa8jv3dwNEfm3E"
  },
  {
    "index": 100,
    "name": "Sprint Store (Westview)",
    "street": "5010 Buckeystown Pike #124",
    "city": "Frederick",
    "state": "MD",
    "zip": 21704,
    "latitude": 39.3714723819377,
    "longitude": -77.4125057458877,
    "area": "Rt. 355/Rt. 85",
    "notes": "",
    "image": "http://lh3.googleusercontent.com/cwxV6b0ceIB3MJFM8a2YYhdPXAf0jVa377Ikk_hb-2lma2mnd_XfdWv5QAwoXWnlr7dnACi9owFE6L-cTg4M"
  },
  {
    "index": 101,
    "name": "Westview Cinema Fountain",
    "street": "5243 Buckeystown Pike",
    "city": "Frederick",
    "state": "MD",
    "zip": 21704,
    "latitude": 39.3743959280462,
    "longitude": -77.4124789237976,
    "area": "Rt. 355/Rt. 85",
    "notes": "",
    "image": "http://lh3.ggpht.com/N8iduf_A2VNnXD1x2sJ8wlkye4LlX5kj1UH9hE2f2PdXtCOK8clQ-Lgs3wdgE5nRMhYNHD9FNudXS-wGAcDxAQ"
  },
  {
    "index": 102,
    "name": "Gambril Red Trail",
    "street": "8602 Gambrill Park Rd",
    "city": "Frederick",
    "state": "MD",
    "zip": 21702,
    "latitude": 39.4608028921426,
    "longitude": -77.4886912107467,
    "area": "Gambril",
    "notes": "",
    "image": "http://lh4.ggpht.com/_yuRIwlz1fTbc754-Mk9PfFhxEpoDnSHLJr1kG6UPmN2bXeTW6jfvbrYaVLxXaAhH0og91lq_ekZFZf-1sDb"
  },
  {
    "index": 103,
    "name": "Gambril State Park",
    "street": "8602 Gambrill Park Rd",
    "city": "Frederick",
    "state": "MD",
    "zip": 21702,
    "latitude": 39.4539564076692,
    "longitude": -77.4949193000793,
    "area": "Gambril",
    "notes": "",
    "image": "http://lh3.ggpht.com/GpUC8hyPNPxELufJB41qCcDJsLO0FIA_wRygB5RE89r0viSN7ZWLZskN7nOAWdfoYJWRCbcb4NZEZvh92bt2"
  },
  {
    "index": 104,
    "name": "The Tea Room",
    "street": "8602 Gambrill Park Rd",
    "city": "Frederick",
    "state": "MD",
    "zip": 21702,
    "latitude": 39.4614945442896,
    "longitude": -77.4951767921447,
    "area": "Gambril",
    "notes": "",
    "image": "http://lh4.ggpht.com/qWHu5Ws6Z3j5oR_FwpbNWnrpbYsrVkxdKBJgUE_kwQ_l84Fcp0mH1mFQEUgIufJhtEULnvY3GtqHjgHTYqZ0VQ"
  },
  {
    "index": 105,
    "name": "In Honor of the Civilian Conservation Core",
    "street": "8602 Gambrill Park Rd",
    "city": "Frederick",
    "state": "MD",
    "zip": 21702,
    "latitude": 39.4634327903331,
    "longitude": -77.4947476387024,
    "area": "Gambril",
    "notes": "",
    "image": "http://lh6.ggpht.com/FB1jBH7sQ0kJG3KmLWPDSCLal4VFf6JD27WONDs4YObJ5Venk8-AZZljUt_KnyFAWc0efsZhy-c4w35N9tE"
  },
  {
    "index": 106,
    "name": "Gambrill State Park Nature Center",
    "street": "8602 Gambrill Park Rd",
    "city": "Frederick",
    "state": "MD",
    "zip": 21702,
    "latitude": 39.4644764389215,
    "longitude": -77.4956488609314,
    "area": "Gambril",
    "notes": "",
    "image": "http://lh4.ggpht.com/ElpiU4D4rgOm7FQjHYNSoh2aUB7qVl-YpjcU2UWyxPTPGQd3N8ql-tZrftCRpoAVn_fnqphomiCrrI0p0sADog"
  }
]
